{"status":"1","info":"OK","infocode":"10000","regeocode":{"formatted_address":"江苏省苏州市张家港市杨舍镇中兴路64号","addressComponent":{"country":"中国","province":"江苏省","city":"苏州市","citycode":"0512","district":"张家港市","adcode":"320582","township":"杨舍镇","towncode":"320582100000","neighborhood":{"name":[],"type":[]},"building":{"name":[],"type":[]},"streetNumber":{"street":"中兴路","number":"64号","location":"120.524887,31.8991103","direction":"南","distance":"74.4884"},"businessAreas":[[]]},"pois":[{"id":"B02000JP0Q","name":"骏鑫实业","type":"公司企业;公司;公司","tel":[],"direction":"西南","distance":"79.5214","location":"120.524189,31.899294","address":"张家港经济技术开发区中兴路66号","poiweight":"0.287229","businessarea":[]},{"id":"B02000JP0R","name":"泰林汽车配件(张家港)有限公司","type":"公司企业;公司;公司","tel":[],"direction":"西","distance":"137.844","location":"120.523381,31.899522","address":"杨舍镇中兴路68号","poiweight":"0.246591","businessarea":[]},{"id":"B02000JP0T","name":"张家港江联精机有限公司","type":"公司企业;公司;公司","tel":[],"direction":"南","distance":"176.289","location":"120.524657,31.898197","address":"经济技术开发区张家港市经济开发区振兴路58号旁边张家港(希尔发驾校对面)","poiweight":"0.271768","businessarea":[]},{"id":"B0FFFRYPV4","name":"苏州金麦穗食品有限公司","type":"公司企业;公司;公司","tel":[],"direction":"东北","distance":"272.398","location":"120.526671,31.901649","address":"经济开发区长兴路33号","poiweight":"0.169487","businessarea":[]}],"roads":[],"roadinters":[],"aois":[]}}